{
    "hotels": [
    {
        "id": 1,
        "name": "Luxury Villa",
        "location": "Juhu Beach, Mumbai",
        "original_price": 350,
        "discounted_price": 300,
        "discount_percentage": 15,
        "rooms_available": 5,
        "number_of_beds": 2,
        "amenities": ["Free Wi-Fi", "Swimming Pool", "Ocean View"],
        "available_dates": ["2023-01-15", "2023-02-20", "2023-03-10"],
        "image_url": "https://a0.muscache.com/im/pictures/miso/Hosting-23644525/original/41fc7180-51c9-47e1-a9a8-45b47ad1b7d5.jpeg?im_w=960",
        "address": {
        "city": "Mumbai",
        "street": "Juhu Tara Road",
        "postal_code": "400049",
        "country": "India",
        "latitude": 19.1070,
        "longitude": 72.8260
        }
    },
    {
        "id": 2,
        "name": "Seafront Retreat",
        "location": "Marine Drive, Mumbai",
        "original_price": 250,
        "discounted_price": 200,
        "discount_percentage": 20,
        "rooms_available": 8,
        "number_of_beds": 3,
        "amenities": ["Free Wi-Fi", "City View"],
        "available_dates": ["2023-01-18", "2023-02-22", "2023-03-12"],
        "image_url": "https://a0.muscache.com/im/pictures/72474129-04c4-48e9-9634-d04ad0a1d3f6.jpg?im_w=960",
        "address": {
        "city": "Mumbai",
        "street": "Marine Drive",
        "postal_code": "400020",
        "country": "India",
        "latitude": 18.9416,
        "longitude": 72.8237
        }
    },
    {
        "id": 3,
        "name": "Urban Oasis",
        "location": "Lower Parel, Mumbai",
        "original_price": 300,
        "discounted_price": 250,
        "discount_percentage": 16.67,
        "rooms_available": 6,
        "number_of_beds": 2,
        "amenities": ["Free Wi-Fi", "Gym"],
        "available_dates": ["2023-01-20", "2023-02-25", "2023-03-15"],
        "image_url": "https://a0.muscache.com/im/pictures/f81bd80b-343c-4c8e-902e-9c38dc4865b2.jpg?im_w=960",
        "address": {
        "city": "Mumbai",
        "street": "Senapati Bapat Marg",
        "postal_code": "400013",
        "country": "India",
        "latitude": 19.0062,
        "longitude": 72.8305
        }
    },
    {
        "id": 4,
        "name": "Skyline View Apartments",
        "location": "Worli, Mumbai",
        "original_price": 400,
        "discounted_price": 350,
        "discount_percentage": 12.5,
        "rooms_available": 4,
        "number_of_beds": 1,
        "amenities": ["Free Wi-Fi", "Panoramic City View"],
        "available_dates": ["2023-01-22", "2023-02-27", "2023-03-17"],
        "image_url": "https://a0.muscache.com/im/pictures/8fcab58e-81b3-47d1-a3f0-5754d3a0eda9.jpg?im_w=960",
        "address": {
        "city": "Mumbai",
        "street": "Annie Besant Road",
        "postal_code": "400018",
        "country": "India",
        "latitude": 19.0117,
        "longitude": 72.8185
        }
    },
    {
        "id": 5,
        "name": "Charming Bungalow",
        "location": "Colaba, Mumbai",
        "original_price": 180,
        "discounted_price": 150,
        "discount_percentage": 16.67,
        "rooms_available": 12,
        "number_of_beds": 4,
        "amenities": ["Free Wi-Fi", "Historic Location"],
        "available_dates": ["2023-01-25", "2023-03-01", "2023-03-20"],
        "image_url": "https://a0.muscache.com/im/pictures/hosting/Hosting-1053397726000171681/original/9a4f01b9-e8cb-4b23-af65-0c84569f4012.jpeg?im_w=960",
        "address": {
        "city": "Mumbai",
        "street": "Colaba Causeway",
        "postal_code": "400005",
        "country": "India",
        "latitude": 18.9154,
        "longitude": 72.8258
        }
    },
    {
        "id": 6,
        "name": "Rooftop Haven",
        "location": "Andheri, Mumbai",
        "original_price": 280,
        "discounted_price": 230,
        "discount_percentage": 17.86,
        "rooms_available": 7,
        "number_of_beds": 2,
        "amenities": ["Free Wi-Fi", "Rooftop Lounge"],
        "available_dates": ["2023-01-28", "2023-03-05", "2023-03-25"],
        "image_url": "https://a0.muscache.com/im/pictures/c8213e7e-1b95-4d6b-a381-9404a43eef72.jpg?im_w=960",
        "address": {
        "city": "Mumbai",
        "street": "Andheri Kurla Road",
        "postal_code": "400059",
        "country": "India",
        "latitude": 19.1163,
        "longitude": 72.8641
        }
    },{
        "id": 7,
        "name": "Artistic Loft",
        "location": "Kala Ghoda, Mumbai",
        "original_price": 320,
        "discounted_price": 280,
        "discount_percentage": 12.5,
        "rooms_available": 5,
        "number_of_beds": 3,
        "amenities": ["Free Wi-Fi", "Artistic Decor"],
        "available_dates": ["2023-01-30", "2023-03-08", "2023-03-30"],
        "image_url": "https://a0.muscache.com/im/pictures/airflow/Hosting-11628462/original/bfc2b6a7-fad6-4972-9877-6f532f30ce7c.jpg?im_w=720",
        "address": {
        "city": "Mumbai",
        "street": "Ropewalk Lane",
        "postal_code": "400001",
        "country": "India",
        "latitude": 18.9280,
        "longitude": 72.8324
        }
    },
    {
        "id": 8,
        "name": "Tranquil Retreat",
        "location": "Powai, Mumbai",
        "original_price": 260,
        "discounted_price": 220,
        "discount_percentage": 15.38,
        "rooms_available": 9,
        "number_of_beds": 4,
        "amenities": ["Free Wi-Fi", "Lakeside View"],
        "available_dates": ["2023-02-02", "2023-03-10", "2023-04-02"],
        "image_url": "https://a0.muscache.com/im/pictures/a169914f-e649-4c6a-ae7e-3e4603fcc2b5.jpg?im_w=720",
        "address": {
        "city": "Mumbai",
        "street": "Powai Lake Road",
        "postal_code": "400076",
        "country": "India",
        "latitude": 19.1197,
        "longitude": 72.9090
        }
    },
    {
        "id": 9,
        "name": "Serene Cottage",
        "location": "Malabar Hill, Mumbai",
        "original_price": 310,
        "discounted_price": 280,
        "discount_percentage": 9.68,
        "rooms_available": 6,
        "number_of_beds": 2,
        "amenities": ["Free Wi-Fi", "Garden View"],
        "available_dates": ["2023-02-05", "2023-03-15", "2023-04-05"],
        "image_url": "https://a0.muscache.com/im/pictures/hosting/Hosting-1024431531091118873/original/e8279cfa-83a1-4825-946b-b9f476e7d20d.jpeg?im_w=720",
        "address": {
        "city": "Mumbai",
        "street": "Walkeshwar Road",
        "postal_code": "400006",
        "country": "India",
        "latitude": 18.9511,
        "longitude": 72.7957
        }
    },
    {
        "id": 10,
        "name": "Beachfront Paradise",
        "location": "Aksa Beach, Mumbai",
        "original_price": 380,
        "discounted_price": 330,
        "discount_percentage": 13.16,
        "rooms_available": 3,
        "number_of_beds": 1,
        "amenities": ["Free Wi-Fi", "Private Beach Access"],
        "available_dates": ["2023-02-08", "2023-03-20", "2023-04-10"],
        "image_url": "https://a0.muscache.com/im/pictures/2a7ccafb-4695-440f-a49d-cd1cd5f061a2.jpg?im_w=720",
        "address": {
        "city": "Mumbai",
        "street": "Aksa Beach Road",
        "postal_code": "400095",
        "country": "India",
        "latitude": 19.1579,
        "longitude": 72.7954
        }
    },
    {
        "id": 11,
        "name": "Pune Palace",
        "location": "Koregaon Park, Pune",
        "original_price": 300,
        "discounted_price": 250,
        "discount_percentage": 16.67,
        "rooms_available": 6,
        "number_of_beds": 2,
        "amenities": ["Free Wi-Fi", "Swimming Pool", "Garden View"],
        "available_dates": ["2023-04-15", "2023-05-20", "2023-06-10"],
        "image_url": "https://a0.muscache.com/im/pictures/a636bdc0-9eed-4de7-b9aa-6cb4bf90f699.jpg?im_w=720",
        "address": {
        "city": "Pune",
        "street": "North Main Road",
        "postal_code": "411001",
        "country": "India",
        "latitude": 18.5362,
        "longitude": 73.8939
        }
    },
    {
        "id": 12,
        "name": "Serene Heights",
        "location": "Baner, Pune",
        "original_price": 220,
        "discounted_price": 180,
        "discount_percentage": 18.18,
        "rooms_available": 8,
        "number_of_beds": 3,
        "amenities": ["Free Wi-Fi", "City View"],
        "available_dates": ["2023-04-18", "2023-05-22", "2023-06-12"],
        "image_url": "https://a0.muscache.com/im/pictures/ec067fac-1752-4f38-8ae2-7fd212d509e1.jpg?im_w=720",
        "address": {
        "city": "Pune",
        "street": "Baner Road",
        "postal_code": "411045",
        "country": "India",
        "latitude": 18.5568,
        "longitude": 73.7922
        }
    },
    {
        "id": 13,
        "name": "Tranquil Residency",
        "location": "Kothrud, Pune",
        "original_price": 260,
        "discounted_price": 220,
        "discount_percentage": 15.38,
        "rooms_available": 6,
        "number_of_beds": 2,
        "amenities": ["Free Wi-Fi", "Gym"],
        "available_dates": ["2023-04-20", "2023-05-25", "2023-06-15"],
        "image_url": "https://a0.muscache.com/im/pictures/miso/Hosting-955424613758713682/original/25f89ae9-cdae-4635-85b2-9515b22c00bb.jpeg?im_w=720",
        "address": {
        "city": "Pune",
        "street": "Paud Road",
        "postal_code": "411038",
        "country": "India",
        "latitude": 18.5101,
        "longitude": 73.8075
        }
    },
    {
        "id": 14,
        "name": "Hillside Retreat",
        "location": "Viman Nagar, Pune",
        "original_price": 350,
        "discounted_price": 300,
        "discount_percentage": 15,
        "rooms_available": 4,
        "number_of_beds": 1,
        "amenities": ["Free Wi-Fi", "Hill View"],
        "available_dates": ["2023-04-22", "2023-05-27", "2023-06-17"],
        "image_url": "https://a0.muscache.com/im/pictures/miso/Hosting-1054199482208615300/original/56b75417-48c7-408d-8ae7-bb29860ca605.jpeg?im_w=720",
        "address": {
        "city": "Pune",
        "street": "New Airport Road",
        "postal_code": "411014",
        "country": "India",
        "latitude": 18.5654,
        "longitude": 73.9165
        }
    },
    {
        "id": 15,
        "name": "Garden Retreat",
        "location": "Wakad, Pune",
        "original_price": 180,
        "discounted_price": 150,
        "discount_percentage": 16.67,
        "rooms_available": 12,
        "number_of_beds": 4,
        "amenities": ["Free Wi-Fi", "Garden View"],
        "available_dates": ["2023-04-25", "2023-06-01", "2023-06-20"],
        "image_url": "https://a0.muscache.com/im/pictures/8f15f6ce-f4ea-484a-882e-c8792d15104e.jpg?im_w=720",
        "address": {
        "city": "Pune",
        "street": "Wakad Road",
        "postal_code": "411057",
        "country": "India",
        "latitude": 18.5917,
        "longitude": 73.7437
        }
    },
    {
        "id": 17,
        "name": "Artistic Haven",
        "location": "Shivaji Nagar, Pune",
        "original_price": 320,
        "discounted_price": 280,
        "discount_percentage": 12.5,
        "rooms_available": 5,
        "number_of_beds": 3,
        "amenities": ["Free Wi-Fi", "Artistic Decor"],
        "available_dates": ["2023-05-02", "2023-06-08", "2023-06-28"],
        "image_url": "https://a0.muscache.com/im/pictures/03d9eda5-3228-46d0-ba1c-d78ad24f5e07.jpg?im_w=720",
        "address": {
        "city": "Pune",
        "street": "Shivaji Nagar",
        "postal_code": "411005",
        "country": "India",
        "latitude": 18.5282,
        "longitude": 73.8546
        }
    },
    {
        "id": 18,
        "name": "Urban Oasis",
        "location": "Hadapsar, Pune",
        "original_price": 300,
        "discounted_price": 260,
        "discount_percentage": 13.33,
        "rooms_available": 9,
        "number_of_beds": 2,
        "amenities": ["Free Wi-Fi", "Lounge Area"],
        "available_dates": ["2023-05-05", "2023-06-10", "2023-06-30"],
        "image_url": "https://a0.muscache.com/im/pictures/828e8c5f-225a-4ff8-9655-7026b2005b4e.jpg?im_w=720",
        "address": {
        "city": "Pune",
        "street": "Hadapsar",
        "postal_code": "411028",
        "country": "India",
        "latitude": 18.5047,
        "longitude": 73.9279
        }
    },
    {
        "id": 19,
        "name": "Cosy Corner",
        "location": "Magarpatta, Pune",
        "original_price": 250,
        "discounted_price": 210,
        "discount_percentage": 16,
        "rooms_available": 10,
        "number_of_beds": 3,
        "amenities": ["Free Wi-Fi", "Balcony"],
        "available_dates": ["2023-05-08", "2023-06-15", "2023-07-05"],
        "image_url": "https://a0.muscache.com/im/pictures/e0c716c0-2cea-4073-8adc-138ab74c9b3b.jpg?im_w=720",
        "address": {
        "city": "Pune",
        "street": "Magarpatta",
        "postal_code": "411013",
        "country": "India",
        "latitude": 18.5010,
        "longitude": 73.9277
        }
    },
    {
        "id": 20,
        "name": "Skyline View",
        "location": "Aundh, Pune",
        "original_price": 280,
        "discounted_price": 240,
        "discount_percentage": 14.29,
        "rooms_available": 8,
        "number_of_beds": 2,
        "amenities": ["Free Wi-Fi", "Skyline View"],
        "available_dates": ["2023-05-12", "2023-06-18", "2023-07-08"],
        "image_url": "https://a0.muscache.com/im/pictures/4cd3b3fb-100a-461c-af18-3792c7f45609.jpg?im_w=720",
        "address": {
        "city": "Pune",
        "street": "Aundh Road",
        "postal_code": "411007",
        "country": "India",
        "latitude": 18.5618,
        "longitude": 73.8097
        }
    },
    {
        "id": 21,
        "name": "Royal Retreat",
        "location": "Connaught Place, Delhi",
        "original_price": 400,
        "discounted_price": 350,
        "discount_percentage": 12.5,
        "rooms_available": 5,
        "number_of_beds": 2,
        "amenities": ["Free Wi-Fi", "City View"],
        "available_dates": ["2023-07-15", "2023-08-20", "2023-09-10"],
        "image_url": "https://a0.muscache.com/im/pictures/hosting/Hosting-1006881671033547158/original/4daacdc9-5616-4fba-9f18-d75ae1794bdc.jpeg?im_w=720",
        "address": {
        "city": "Delhi",
        "street": "Connaught Place",
        "postal_code": "110001",
        "country": "India",
        "latitude": 28.6315,
        "longitude": 77.2167
        }
    },
    {
        "id": 22,
        "name": "Grand Gardens",
        "location": "South Extension, Delhi",
        "original_price": 320,
        "discounted_price": 280,
        "discount_percentage": 12.5,
        "rooms_available": 8,
        "number_of_beds": 3,
        "amenities": ["Free Wi-Fi", "Garden View"],
        "available_dates": ["2023-07-18", "2023-08-22", "2023-09-12"],
        "image_url": "https://a0.muscache.com/im/pictures/9176e4eb-3719-4330-b4dc-bdbf7ae6fd92.jpg?im_w=720",
        "address": {
        "city": "Delhi",
        "street": "South Extension",
        "postal_code": "110049",
        "country": "India",
        "latitude": 28.5646,
        "longitude": 77.2188
        }
    },
    {
        "id": 23,
        "name": "Skyline Suites",
        "location": "Chanakyapuri, Delhi",
        "original_price": 450,
        "discounted_price": 400,
        "discount_percentage": 11.11,
        "rooms_available": 6,
        "number_of_beds": 2,
        "amenities": ["Free Wi-Fi", "Skyline View"],
        "available_dates": ["2023-07-20", "2023-08-25", "2023-09-15"],
        "image_url": "https://a0.muscache.com/im/pictures/5309659/b1263fe3_original.jpg?im_w=720",
        "address": {
        "city": "Delhi",
        "street": "Chanakyapuri",
        "postal_code": "110021",
        "country": "India",
        "latitude": 28.5947,
        "longitude": 77.1898
        }
    },
    {
        "id": 24,
        "name": "Heritage Haven",
        "location": "Hauz Khas, Delhi",
        "original_price": 380,
        "discounted_price": 340,
        "discount_percentage": 10.53,
        "rooms_available": 4,
        "number_of_beds": 1,
        "amenities": ["Free Wi-Fi", "Heritage View"],
        "available_dates": ["2023-07-22", "2023-08-27", "2023-09-17"],
        "image_url": "https://a0.muscache.com/im/pictures/27a074d7-67f6-4f91-a726-30ada0fd6321.jpg?im_w=720",
        "address": {
        "city": "Delhi",
        "street": "Hauz Khas",
        "postal_code": "110016",
        "country": "India",
        "latitude": 28.5532,
        "longitude": 77.1966
        }
    },
    {
        "id": 26,
        "name": "Luxe Living",
        "location": "Greater Kailash, Delhi",
        "original_price": 300,
        "discounted_price": 260,
        "discount_percentage": 13.33,
        "rooms_available": 10,
        "number_of_beds": 3,
        "amenities": ["Free Wi-Fi", "Lounge Area"],
        "available_dates": ["2023-07-30", "2023-08-05", "2023-09-25"],
        "image_url": "https://a0.muscache.com/im/pictures/miso/Hosting-923629520495553888/original/73ce7916-6a76-4d02-9738-7f45e4ebe84f.jpeg?im_w=720",
        "address": {
        "city": "Delhi",
        "street": "Greater Kailash",
        "postal_code": "110048",
        "country": "India",
        "latitude": 28.5569,
        "longitude": 77.2426
        }
    },
    {
        "id": 27,
        "name": "Cityscape Suites",
        "location": "Karol Bagh, Delhi",
        "original_price": 350,
        "discounted_price": 300,
        "discount_percentage": 14.29,
        "rooms_available": 7,
        "number_of_beds": 2,
        "amenities": ["Free Wi-Fi", "City View"],
        "available_dates": ["2023-08-02", "2023-08-08", "2023-09-30"],
        "image_url": "https://a0.muscache.com/im/pictures/miso/Hosting-796168020547314526/original/9491be3e-ad20-4701-860d-80a87429dd43.jpeg?im_w=720",
        "address": {
        "city": "Delhi",
        "street": "Karol Bagh",
        "postal_code": "110005",
        "country": "India",
        "latitude": 28.6523,
        "longitude": 77.1894
        }
    },
    {
        "id": 28,
        "name": "Tranquil Residency",
        "location": "Paharganj, Delhi",
        "original_price": 280,
        "discounted_price": 240,
        "discount_percentage": 14.29,
        "rooms_available": 5,
        "number_of_beds": 2,
        "amenities": ["Free Wi-Fi", "Garden View"],
        "available_dates": ["2023-08-05", "2023-08-10", "2023-10-02"],
        "image_url": "https://a0.muscache.com/im/pictures/b497169f-03af-44c7-8c3b-4e6ab10bcc0f.jpg?im_w=720",
        "address": {
        "city": "Delhi",
        "street": "Paharganj",
        "postal_code": "110055",
        "country": "India",
        "latitude": 28.6456,
        "longitude": 77.2177
        }
    },
    {
        "id": 29,
        "name": "Golden Grandeur",
        "location": "Nehru Place, Delhi",
        "original_price": 400,
        "discounted_price": 350,
        "discount_percentage": 12.5,
        "rooms_available": 6,
        "number_of_beds": 2,
        "amenities": ["Free Wi-Fi", "City View"],
        "available_dates": ["2023-08-08", "2023-08-15", "2023-10-05"],
        "image_url": "https://a0.muscache.com/im/pictures/hosting/Hosting-996809330688022081/original/10ec14a6-b565-4039-973b-07b07f7dc887.jpeg?im_w=720",
        "address": {
        "city": "Delhi",
        "street": "Nehru Place",
        "postal_code": "110019",
        "country": "India",
        "latitude": 28.5492,
        "longitude": 77.2504
        }
    },
    {
        "id": 30,
        "name": "Sunset Serenity",
        "location": "Rohini, Delhi",
        "original_price": 320,
        "discounted_price": 280,
        "discount_percentage": 12.5,
        "rooms_available": 8,
        "number_of_beds": 3,
        "amenities": ["Free Wi-Fi", "Sunset View"],
        "available_dates": ["2023-08-12", "2023-08-18", "2023-10-10"],
        "image_url": "https://a0.muscache.com/im/pictures/miso/Hosting-29372770/original/f4139582-5a9b-465e-8803-19e39141ad6f.jpeg?im_w=720",
        "address": {
        "city": "Delhi",
        "street": "Rohini",
        "postal_code": "110085",
        "country": "India",
        "latitude": 28.7216,
        "longitude": 77.1098
        }
    },
    {
        "id": 31,
        "name": "Riverfront Retreat",
        "location": "Sayajigunj, Vadodara",
        "original_price": 300,
        "discounted_price": 250,
        "discount_percentage": 16.67,
        "rooms_available": 8,
        "number_of_beds": 2,
        "amenities": ["Free Wi-Fi", "River View"],
        "available_dates": ["2023-09-15", "2023-10-20", "2023-11-10"],
        "image_url": "https://a0.muscache.com/im/pictures/miso/Hosting-25228912/original/7bb696ea-169e-4e21-bdfb-da65dd9881b6.jpeg?im_w=720",
        "address": {
        "city": "Vadodara",
        "street": "Sayajigunj",
        "postal_code": "390005",
        "country": "India",
        "latitude": 22.3072,
        "longitude": 73.1812
        }
    },
    {
        "id": 32,
        "name": "Historic Haven",
        "location": "Alkapuri, Vadodara",
        "original_price": 350,
        "discounted_price": 300,
        "discount_percentage": 14.29,
        "rooms_available": 6,
        "number_of_beds": 3,
        "amenities": ["Free Wi-Fi", "Historic View"],
        "available_dates": ["2023-09-18", "2023-10-22", "2023-11-12"],
        "image_url": "https://a0.muscache.com/im/pictures/3f1078bc-a19c-4b54-a208-b595ff3264d9.jpg?im_w=720",
        "address": {
        "city": "Vadodara",
        "street": "Alkapuri",
        "postal_code": "390007",
        "country": "India",
        "latitude": 22.3127,
        "longitude": 73.1724
        }
    },
    {
        "id": 33,
        "name": "Garden Oasis",
        "location": "Akota, Vadodara",
        "original_price": 280,
        "discounted_price": 240,
        "discount_percentage": 14.29,
        "rooms_available": 10,
        "number_of_beds": 2,
        "amenities": ["Free Wi-Fi", "Garden View"],
        "available_dates": ["2023-09-20", "2023-10-25", "2023-11-15"],
        "image_url": "https://a0.muscache.com/im/pictures/50ca25fa-1903-4e36-8cab-66211a34d787.jpg?im_w=720",
        "address": {
        "city": "Vadodara",
        "street": "Akota",
        "postal_code": "390020",
        "country": "India",
        "latitude": 22.3187,
        "longitude": 73.1634
        }
    },
    {
        "id": 34,
        "name": "Urban Escape",
        "location": "Fatehgunj, Vadodara",
        "original_price": 320,
        "discounted_price": 280,
        "discount_percentage": 12.5,
        "rooms_available": 7,
        "number_of_beds": 1,
        "amenities": ["Free Wi-Fi", "City View"],
        "available_dates": ["2023-09-22", "2023-10-27", "2023-11-17"],
        "image_url": "https://a0.muscache.com/im/pictures/miso/Hosting-577752314934656894/original/2f3edec6-ecd8-49bc-8d1a-4c1f90ea5436.jpeg?im_w=720",
        "address": {
        "city": "Vadodara",
        "street": "Fatehgunj",
        "postal_code": "390002",
        "country": "India",
        "latitude": 22.3116,
        "longitude": 73.1871
        }
    },
    {
        "id": 35,
        "name": "Serenity Suites",
        "location": "Subhanpura, Vadodara",
        "original_price": 380,
        "discounted_price": 340,
        "discount_percentage": 10.53,
        "rooms_available": 5,
        "number_of_beds": 2,
        "amenities": ["Free Wi-Fi", "Park View"],
        "available_dates": ["2023-09-25", "2023-10-30", "2023-11-20"],
        "image_url": "https://a0.muscache.com/im/pictures/8bb414b9-fcf9-4677-a886-67acde900264.jpg?im_w=720",
        "address": {
        "city": "Vadodara",
        "street": "Subhanpura",
        "postal_code": "390023",
        "country": "India",
        "latitude": 22.3175,
        "longitude": 73.1716
        }
    },
    {
        "id": 36,
        "name": "Tranquil Residency",
        "location": "Gotri, Vadodara",
        "original_price": 280,
        "discounted_price": 240,
        "discount_percentage": 14.29,
        "rooms_available": 9,
        "number_of_beds": 3,
        "amenities": ["Free Wi-Fi", "Tranquil View"],
        "available_dates": ["2023-09-28", "2023-11-05", "2023-11-25"],
        "image_url": "https://a0.muscache.com/im/pictures/279277d2-806f-444c-8a35-5b487bcdc432.jpg?im_w=720",
        "address": {
        "city": "Vadodara",
        "street": "Gotri",
        "postal_code": "390021",
        "country": "India",
        "latitude": 22.2982,
        "longitude": 73.1470
        }
    },
    {
        "id": 38,
        "name": "Royal Residences",
        "location": "Rajmahal Road, Vadodara",
        "original_price": 400,
        "discounted_price": 350,
        "discount_percentage": 12.5,
        "rooms_available": 8,
        "number_of_beds": 3,
        "amenities": ["Free Wi-Fi", "City View"],
        "available_dates": ["2023-10-02", "2023-10-10", "2023-11-05"],
        "image_url": "https://a0.muscache.com/im/pictures/miso/Hosting-914448570091354209/original/c84a1206-6889-4e16-8340-87c559327261.jpeg?im_w=720",
        "address": {
        "city": "Vadodara",
        "street": "Rajmahal Road",
        "postal_code": "390001",
        "country": "India",
        "latitude": 22.3042,
        "longitude": 73.1822
        }
    },
    {
        "id": 39,
        "name": "Grand Garden Hotel",
        "location": "Race Course, Vadodara",
        "original_price": 350,
        "discounted_price": 300,
        "discount_percentage": 14.29,
        "rooms_available": 10,
        "number_of_beds": 2,
        "amenities": ["Free Wi-Fi", "Garden View"],
        "available_dates": ["2023-10-05", "2023-10-15", "2023-11-10"],
        "image_url": "https://a0.muscache.com/im/pictures/414df2a4-ce5b-43b2-bfdb-c1ae6f6ffd23.jpg?im_w=720",
        "address": {
        "city": "Vadodara",
        "street": "Race Course",
        "postal_code": "390007",
        "country": "India",
        "latitude": 22.2994,
        "longitude": 73.1806
        }
    },
    {
        "id": 40,
        "name": "Skyline Suites",
        "location": "Waghodia Road, Vadodara",
        "original_price": 300,
        "discounted_price": 260,
        "discount_percentage": 13.33,
        "rooms_available": 7,
        "number_of_beds": 2,
        "amenities": ["Free Wi-Fi", "City View"],
        "available_dates": ["2023-10-08", "2023-10-18", "2023-11-15"],
        "image_url": "https://a0.muscache.com/im/pictures/693e89a4-03c6-48f9-ade7-a0184da43f29.jpg?im_w=720",
        "address": {
        "city": "Vadodara",
        "street": "Waghodia Road",
        "postal_code": "390019",
        "country": "India",
        "latitude": 22.2786,
        "longitude": 73.1599
        }
    },
    {
        "id": 41,
        "name": "Elegant Escapes",
        "location": "Manjalpur, Vadodara",
        "original_price": 320,
        "discounted_price": 280,
        "discount_percentage": 12.5,
        "rooms_available": 6,
        "number_of_beds": 1,
        "amenities": ["Free Wi-Fi", "City View"],
        "available_dates": ["2023-10-12", "2023-10-22", "2023-11-20"],
        "image_url": "https://a0.muscache.com/im/pictures/2f7466d2-d7fd-404c-94cb-3f9216503922.jpg?im_w=720",
        "address": {
        "city": "Vadodara",
        "street": "Manjalpur",
        "postal_code": "390011",
        "country": "India",
        "latitude": 22.2850,
        "longitude": 73.1685
        }
    }
    ]
}

    
